City_ID,City,Lat,Lng,Max Temp,Humidity,Cloudiness,Wind Speed,Country,Date
0,valparaiso,-33.0393,-71.6273,22.78,45,0,6.17,CL,1738863224
1,waitangi,-43.9535,-176.5597,12.12,82,100,0.45,NZ,1738863266
2,port-aux-francais,-49.35,70.2167,7.71,91,100,12.61,TF,1738862679
3,ushuaia,-54.8,-68.3,8.81,76,75,12.86,AR,1738863269
4,brookings,44.3114,-96.7984,-6.97,62,0,12.86,US,1738863270
5,keflavik,64.0049,-22.5624,1.24,80,75,14.92,IS,1738863272
6,klyuchi,52.2667,79.1667,-18.79,90,5,3.75,RU,1738863273
7,adamstown,-25.066,-130.1015,24.97,78,37,5.46,PN,1738863274
8,fale old settlement,-9.3852,-171.2468,28.27,76,86,6.96,TK,1738863275
9,uturoa,-16.7333,-151.4333,27.19,78,25,5.84,PF,1738863276
10,bako,5.7833,36.5667,22.59,31,98,2.46,ET,1738863277
11,udachny,66.4167,112.4,-21.44,100,98,1.56,RU,1738863278
12,smithers,54.7804,-127.1743,-21.82,84,0,0.0,CA,1738863121
13,wailua homesteads,22.0669,-159.378,16.44,100,0,2.06,US,1738863281
14,ayios konstandinos,38.6333,21.4,5.84,76,10,1.43,GR,1738863282
15,port elizabeth,-33.918,25.5701,20.73,81,100,3.13,ZA,1738863283
16,khandyga,62.6667,135.6,-43.54,100,91,0.21,RU,1738863284
17,bredasdorp,-34.5322,20.0403,19.81,69,33,5.2,ZA,1738863259
18,east london,-33.0153,27.9116,19.64,91,100,4.5,ZA,1738863287
19,chui,-33.6971,-53.4616,27.69,48,23,6.92,UY,1738863289
20,tiksi,71.6872,128.8694,-30.88,99,13,3.61,RU,1738863290
21,invercargill,-46.4,168.35,6.68,94,31,0.87,NZ,1738863291
22,ribeira grande,38.5167,-28.7,19.22,88,40,5.36,PT,1738863292
23,stanley,54.868,-1.6985,3.07,87,0,1.03,GB,1738863293
24,fort bragg,35.139,-79.006,14.85,67,20,4.12,US,1738863294
25,puerto natales,-51.7236,-72.4875,10.25,53,75,9.26,CL,1738863295
26,whitehorse,60.7161,-135.0538,-13.57,92,75,2.57,CA,1738863297
27,iqaluit,63.7506,-68.5145,-29.06,61,20,1.03,CA,1738863298
28,longyearbyen,78.2186,15.6401,-0.09,80,75,11.32,SJ,1738863299
29,jiayuguan,39.8167,98.3,-10.81,63,0,1.37,CN,1738863300
30,aasiaat,68.7098,-52.8699,-29.89,100,99,3.02,GL,1738863301
31,shingu,33.7333,135.9833,0.69,67,84,3.51,JP,1738863302
32,thompson,55.7435,-97.8558,-12.91,78,100,3.6,CA,1738863303
33,talnakh,69.4865,88.3972,-21.02,98,100,4.18,RU,1738863305
34,flying fish cove,-10.4217,105.6791,25.82,94,100,5.14,CX,1738863306
35,yellowknife,62.456,-114.3525,-19.71,71,75,4.12,CA,1738863308
36,hovd,48.0056,91.6419,-19.87,78,0,1.72,MN,1738863218
37,benjamin constant,-4.3831,-70.0311,29.07,89,75,2.06,BR,1738863310
38,college,64.8569,-147.8028,-8.01,86,100,0.0,US,1738863311
39,grytviken,-54.2811,-36.5092,4.15,93,97,1.24,GS,1738863312
40,yanjiang,30.1211,104.6481,6.94,84,94,1.91,CN,1738863313
41,west island,-12.1568,96.8225,27.99,83,40,8.75,CC,1738863314
42,constantia,44.1833,28.65,0.39,64,94,7.84,RO,1738863315
43,achinsk,56.2694,90.4993,-25.85,100,96,0.76,RU,1738863316
44,new norfolk,-42.7826,147.0587,13.84,95,18,1.26,AU,1738863318
45,puerto ayora,-0.7393,-90.3518,26.42,90,4,3.13,EC,1738863319
46,blackmans bay,-43.0167,147.3167,14.07,89,36,1.67,AU,1738863320
47,los arabos,22.7281,-80.7214,29.94,36,9,6.73,CU,1738863321
48,mitu,1.1983,-70.1733,29.83,63,82,1.13,CO,1738863323
49,jamestown,42.097,-79.2353,2.23,98,100,8.23,US,1738863254
50,saint-louis,16.3333,-15.0,30.46,6,0,4.78,SN,1738863325
51,valdivia,-39.8142,-73.2459,22.05,47,0,3.26,CL,1738862856
52,atafu village,-8.5421,-172.5159,28.0,77,60,7.14,TK,1738863327
53,utrik,11.2278,169.8474,25.72,80,85,7.57,MH,1738863329
54,gebeit,21.0667,36.3167,16.71,68,18,3.96,SD,1738863239
55,anadyr,64.75,177.4833,-40.56,64,0,5.81,RU,1738863331
56,rio tuba,8.5061,117.4317,25.52,88,100,4.96,PH,1738863332
57,karratha,-20.7377,116.8463,30.92,72,87,9.59,AU,1738863336
58,bethel,41.3712,-73.414,1.23,88,100,1.54,US,1738863263
59,el calafate,-50.3408,-72.2768,10.84,46,4,8.14,AR,1738863338
60,san justo,-30.7891,-60.5919,39.07,16,0,3.38,AR,1738863339
61,margaret river,-33.95,115.0667,17.2,79,62,5.02,AU,1738863340
62,gorontalo,0.5412,123.0595,23.79,96,100,1.47,ID,1738863343
63,neryungri,56.6709,124.6491,-30.04,96,100,2.87,RU,1738863344
64,tadine,-21.55,167.8833,25.55,88,100,8.15,NC,1738863345
65,puerto aysen,-45.4,-72.7,12.94,80,94,2.69,CL,1738863346
66,quarai,-30.3875,-56.4514,39.83,23,0,5.52,BR,1738863347
67,edinburgh of the seven seas,-37.0676,-12.3116,17.75,92,54,7.57,SH,1738863348
68,moranha,27.1833,94.9333,18.39,61,37,0.87,IN,1738863350
69,uthal,25.8072,66.6219,19.54,19,1,1.03,PK,1738863351
70,port mathurin,-19.6833,63.4167,27.96,78,4,5.51,MU,1738863352
71,tazovsky,67.4667,78.7,-18.37,100,92,3.07,RU,1738863353
72,lebu,-37.6167,-73.65,18.0,67,0,9.18,CL,1738863354
73,embi,48.8264,58.1442,-9.89,79,16,8.31,KZ,1738863355
74,badger,64.8,-147.5333,-8.05,86,100,0.0,US,1738863356
75,cambria,35.5641,-121.0808,11.7,93,96,4.92,US,1738863245
76,galappo,-4.2667,35.85,20.12,72,86,1.74,TZ,1738863358
77,corralillo,22.9819,-80.5856,26.41,56,40,8.07,CU,1738863360
78,four corners,28.3329,-81.6474,28.34,60,17,2.24,US,1738863361
79,ohara,35.25,140.3833,4.32,38,100,3.56,JP,1738863362
80,simoca,-27.2627,-65.3565,35.9,36,21,3.35,AR,1738863363
81,sao vicente,-23.9631,-46.3919,34.98,26,40,3.6,BR,1738863246
82,albany,42.6001,-73.9662,-1.88,90,100,1.34,US,1738863337
83,tupiza,-21.45,-65.7167,20.82,27,19,8.0,BO,1738863367
84,san patricio,28.017,-97.5169,24.97,65,100,4.95,US,1738863368
85,rong'an,26.1247,119.1214,9.62,93,100,0.75,CN,1738863370
86,bilibino,68.0546,166.4372,-34.97,92,19,1.49,RU,1738863371
87,geraldton,-28.7667,114.6,23.23,83,20,3.6,AU,1738863372
88,hithadhoo,-0.6,73.0833,27.31,74,64,2.53,MV,1738863373
89,tolanaro,-25.0319,46.9987,26.04,89,75,4.12,MG,1738863374
90,taoudenni,22.6783,-3.9836,20.31,15,0,5.95,ML,1738863375
91,tamanrasset,22.785,5.5228,20.95,21,40,3.09,DZ,1738863376
92,saint-joseph,-21.3667,55.6167,27.21,89,36,0.9,RE,1738863377
93,levokumskoye,44.8219,44.6606,0.5,76,76,4.11,RU,1738863378
94,lihue,21.9789,-159.3672,16.77,100,0,2.06,US,1738863379
95,rongelap,11.1635,166.8941,26.22,76,68,7.67,MH,1738863381
96,carnarvon,-24.8667,113.6333,26.88,70,6,6.88,AU,1738863382
97,mar del plata,-38.0023,-57.5575,28.62,51,40,5.14,AR,1738863383
98,najran,17.4924,44.1277,20.59,19,0,1.68,SA,1738863384
99,qaqortoq,60.7167,-46.0333,-16.39,69,87,4.53,GL,1738863385
100,bikenibeu village,1.3673,173.1241,26.44,84,100,6.81,KI,1738863386
101,puerto armuelles,8.2833,-82.8667,28.38,61,7,2.24,PA,1738863387
102,papatowai,-46.5619,169.4708,9.22,90,27,3.51,NZ,1738863389
103,bayanaul,50.7889,75.6956,-21.29,100,100,1.01,KZ,1738863391
104,port alfred,-33.5906,26.891,21.77,84,100,1.79,ZA,1738863392
105,remire-montjoly,4.9167,-52.2667,25.15,89,100,4.33,GF,1738863349
106,luanda,-8.8368,13.2343,26.78,76,91,5.17,AO,1738863180
107,olonkinbyen,70.9221,-8.7187,1.74,88,100,18.91,SJ,1738863395
108,greenland,43.0362,-70.8328,-0.64,94,100,0.45,US,1738863397
109,cabo san lucas,22.8909,-109.9124,23.62,43,0,2.33,MX,1738863136
110,brewton,31.1052,-87.0722,25.35,79,91,4.06,US,1738863121
111,jatai,-17.8814,-51.7144,27.56,58,100,2.48,BR,1738863401
112,cozumel,20.5083,-86.9458,28.3,65,40,6.17,MX,1738863116
113,mali,12.079,-12.2982,25.79,12,43,3.64,GN,1738863403
114,vila velha,-20.3297,-40.2925,30.97,55,20,6.69,BR,1738862853
115,petropavlovsk-kamchatsky,53.0452,158.6483,-3.67,54,75,3.0,RU,1738863405
116,cockburn town,21.4612,-71.1419,24.98,76,33,9.51,TC,1738863406
117,bubaque,11.2833,-15.8333,25.71,61,5,5.67,GW,1738863408
118,christchurch,-43.5333,172.6333,13.51,84,100,2.06,NZ,1738862860
119,kolonia,50.9333,6.95,6.09,80,100,1.54,DE,1738863373
120,tongliao,43.6125,122.2653,-17.18,70,99,5.83,CN,1738863411
121,labytnangi,66.6572,66.4183,-15.93,99,100,2.48,RU,1738863412
122,broome,42.2506,-75.833,1.6,84,100,6.71,US,1738863413
123,turkestan,43.3333,68.25,3.03,54,0,2.89,KZ,1738863414
124,namdrik,5.5994,168.1028,27.56,77,65,10.04,MH,1738863415
125,pozo del molle,-32.0186,-62.9198,36.86,18,9,3.19,AR,1738863416
126,hermanus,-34.4187,19.2345,21.56,64,0,5.92,ZA,1738863417
127,tejen,37.3834,60.5054,11.81,32,100,2.06,TM,1738863419
128,hawaiian paradise park,19.5933,-154.9731,18.82,98,100,2.06,US,1738863420
129,isafjordur,66.0755,-23.124,0.02,69,75,12.86,IS,1738863421
130,mount gambier,-37.8333,140.7667,16.17,94,97,3.32,AU,1738863422
131,carutapera,-1.195,-46.02,29.02,70,79,2.81,BR,1738863423
132,dayton,39.7589,-84.1916,6.8,87,100,6.17,US,1738863415
133,nemuro,43.3236,145.575,-3.11,66,39,6.6,JP,1738863426
134,hastings,50.8552,0.5729,6.86,79,6,10.03,GB,1738863427
135,sandnessjoen,66.0217,12.6316,7.06,87,75,11.83,NO,1738863428
136,druzhkivka,48.6301,37.5526,-1.95,83,99,6.17,UA,1738863430
137,birobidzhan,48.8,132.95,-8.24,95,100,2.2,RU,1738863431
138,luderitz,-26.6481,15.1594,16.02,85,7,11.88,NA,1738863432
139,srinagar,34.0833,74.8167,3.72,35,0,1.89,IN,1738863433
140,ninghai,29.2892,121.4247,5.15,82,94,1.09,CN,1738863434
141,holualoa,19.6228,-155.9522,18.91,73,0,2.57,US,1738863435
142,luwuk,-0.9516,122.7875,23.25,82,100,1.3,ID,1738863436
143,port saint john's,-31.6229,29.5448,21.22,99,100,1.35,ZA,1738863437
144,kourou,5.1552,-52.6478,24.56,94,100,3.41,GF,1738863438
145,znamensk,48.5842,45.7338,-2.03,76,35,5.09,RU,1738863439
146,sitka,57.0531,-135.33,0.94,55,20,1.54,US,1738863441
147,kabare,-2.4683,28.8242,17.11,91,43,0.82,CD,1738863442
148,ajdabiya,30.7554,20.2263,15.48,48,2,3.04,LY,1738863443
149,hamilton,39.1834,-84.5333,9.95,81,75,5.66,US,1738863444
150,yaren,-0.5472,166.916,26.77,75,79,5.26,NR,1738863445
151,port isabel,26.0734,-97.2086,26.13,79,16,4.02,US,1738863446
152,ghadamis,30.1337,9.5007,16.75,31,30,5.04,LY,1738863447
153,xinyu,27.8043,114.9334,6.0,90,98,1.58,CN,1738863448
154,kruisfontein,-34.0033,24.7314,17.73,90,100,5.39,ZA,1738863450
155,puerto cabello,10.4731,-68.0125,24.31,85,30,4.31,VE,1738863451
156,vredendal,-31.6683,18.5012,22.42,50,0,6.95,ZA,1738863452
157,itarantim,-15.6597,-40.0656,31.69,42,100,3.79,BR,1738863453
158,changli,39.7042,119.1506,-12.23,34,47,6.91,CN,1738863454
159,nar'yan-mar,67.6713,53.087,-5.84,91,100,8.93,RU,1738863455
160,sheringham,52.9408,1.2093,5.11,86,0,7.29,GB,1738863456
161,dalandzadgad,43.5708,104.425,-19.59,63,18,2.12,MN,1738863457
162,rio grande,-32.035,-52.0986,28.49,56,0,6.65,BR,1738863458
163,ellsworth,44.5434,-68.4195,-4.7,78,100,1.54,US,1738863459
164,kirensk,57.7853,108.1119,-36.33,100,46,0.82,RU,1738863460
165,gurupi,-11.7292,-49.0686,31.58,48,40,2.81,BR,1738863462
166,manicore,-5.8092,-61.3003,29.04,78,87,1.49,BR,1738863463
167,faya-largeau,17.9257,19.1043,22.92,15,0,7.31,TD,1738863464
168,aweil,8.7682,27.4002,28.96,16,70,1.98,SS,1738863465
169,mount isa,-20.7333,139.5,23.87,100,20,1.54,AU,1738863466
170,kill devil hills,36.0307,-75.676,7.21,93,100,1.54,US,1738863467
171,jalai nur,49.45,117.7,-18.95,84,99,5.18,CN,1738863468
172,kuqa,41.7278,82.9364,-7.18,86,100,1.28,CN,1738863469
173,ust-nera,64.5667,143.2,-38.89,94,5,1.65,RU,1738863470
174,kayangel,8.0823,134.7173,28.21,79,100,10.19,PW,1738863471
175,pagar alam,-4.0167,103.2667,19.55,98,83,0.15,ID,1738863472
176,alice springs,-23.7,133.8833,28.75,45,72,2.57,AU,1738863474
177,campamento,14.55,-86.65,27.02,42,26,2.96,HN,1738863475
178,quesnel,52.9999,-122.5029,-21.72,77,100,0.0,CA,1738863476
179,touros,-5.1989,-35.4608,24.75,91,100,5.07,BR,1738863477
180,ilanskiy,56.2358,96.065,-25.58,100,93,0.17,RU,1738863478
181,washim,20.1,77.15,23.48,40,1,3.05,IN,1738863479
182,green river,41.5286,-109.4662,-0.57,66,48,2.41,US,1738863480
183,kodiak,57.79,-152.4072,1.73,55,0,3.6,US,1738863200
184,al kharijah,25.4514,30.5464,14.32,43,97,3.52,EG,1738863482
185,enchanted hills,35.3368,-106.593,13.93,23,0,0.89,US,1738863485
186,yelizovo,53.1873,158.3805,-2.92,54,75,3.0,RU,1738863486
187,kristiansund,63.1115,7.732,10.36,40,0,4.12,NO,1738863487
188,pochep,52.9336,33.4464,-2.34,72,49,2.29,RU,1738863488
189,malmyzh,56.5205,50.6818,-14.16,98,77,1.46,RU,1738863489
190,iskateley,67.6803,53.1512,-5.86,91,100,8.88,RU,1738863490
191,klaksvik,62.2266,-6.589,8.07,83,100,20.52,FO,1738863492
192,cidreira,-30.1811,-50.2056,28.38,70,1,9.89,BR,1738863493
193,comodoro rivadavia,-45.8667,-67.5,22.92,16,0,9.77,AR,1738863378
194,santa ana,33.7456,-117.8678,15.92,92,100,2.57,US,1738863432
195,sao gabriel da cachoeira,-0.1303,-67.0892,29.89,70,40,2.57,BR,1738863498
196,castillos,-34.1667,-53.8333,25.76,52,8,5.94,UY,1738863499
197,lompoc,34.6391,-120.4579,14.27,82,100,6.17,US,1738863500
198,taunggyi,20.7833,97.0333,13.16,61,16,0.9,MM,1738863501
199,tura,25.5198,90.2201,15.83,37,0,1.23,IN,1738863502
200,rokupr,8.6717,-12.395,36.25,17,24,0.32,SL,1738863503
201,afonso bezerra,-5.4983,-36.5056,26.76,72,100,5.46,BR,1738863504
202,enewetak,11.3474,162.3373,27.08,69,100,7.83,MH,1738863506
203,nova sintra,14.8667,-24.7167,22.7,71,3,8.9,CV,1738863507
204,orcopampa,-15.2661,-72.3417,17.97,29,48,6.39,PE,1738863508
205,nizhnesortymskiy,62.4397,71.7603,-12.0,97,86,4.1,RU,1738863509
206,santa rosa misiones,-26.8667,-56.85,38.33,28,31,0.77,PY,1738863510
207,itaberaba,-12.5275,-40.3069,32.42,38,99,0.89,BR,1738863511
208,ouricuri,-7.8825,-40.0817,32.62,37,66,3.25,BR,1738863512
209,minas de marcona,-15.2119,-75.1103,24.11,58,31,6.58,PE,1738863513
210,sao joao da barra,-21.6403,-41.0511,31.05,81,100,6.67,BR,1738863514
211,yamada,39.4667,141.95,-2.97,62,22,5.77,JP,1738863515
212,gizo,-8.103,156.8419,28.05,76,98,3.48,SB,1738863517
213,sainte-anne-des-monts,49.124,-66.4924,-8.07,62,84,6.17,CA,1738863518
214,polyarnyy,69.1989,33.4478,0.19,77,100,14.44,RU,1738863519
215,lackland air force base,29.3866,-98.618,22.64,85,100,3.09,US,1738863520
216,walla walla,46.0646,-118.343,-2.85,88,100,2.06,US,1738863521
217,hadibu,12.65,54.0333,23.59,70,3,6.11,YE,1738863522
218,bayanga,7.5214,124.2522,20.71,91,96,1.05,PH,1738863523
219,punta arenas,-53.15,-70.9167,10.06,57,40,13.89,CL,1738863409
220,eyl,7.9803,49.8164,23.32,81,14,7.38,SO,1738863527
221,semarang,-6.9932,110.4203,25.96,89,100,1.54,ID,1738863528
222,magnitogorsk,53.4186,59.0472,-5.54,86,100,4.0,RU,1738863352
223,kozhevnikovo,56.2589,83.9714,-19.83,100,58,2.7,RU,1738863530
224,mana,5.6592,-53.7767,25.81,89,93,4.87,GF,1738863531
225,kailua-kona,19.6406,-155.9956,20.98,70,0,2.57,US,1738863532
226,sechura,-5.5569,-80.8222,21.12,92,24,5.22,PE,1738863533
227,tanumah,27.1,44.1333,15.71,36,49,5.2,SA,1738863534
228,tarfaya,27.9358,-12.9218,18.1,65,45,6.45,MA,1738863535
229,kuandian,40.7286,124.7847,-17.85,91,100,2.36,CN,1738863537
230,colonia,50.9333,6.95,6.09,81,100,1.54,DE,1738863538
231,mandali,33.7499,45.5541,9.83,79,73,5.35,IQ,1738863539
232,nadym,65.5333,72.5167,-14.9,97,100,3.64,RU,1738863540
233,veraval,20.9,70.3667,21.7,33,0,4.74,IN,1738863541
234,koungou,-12.7336,45.2042,27.84,83,40,4.63,YT,1738863542
235,nyurba,63.2842,118.3319,-36.05,96,56,3.03,RU,1738863543
236,st. john's,47.5649,-52.7093,-4.46,70,75,9.77,CA,1738863364
237,island harbour,50.724,-1.2758,7.04,77,5,3.13,GB,1738863545
238,tailai,46.3833,123.4,-14.03,82,100,7.5,CN,1738863547
239,san antonio de pale,-1.4014,5.6325,28.08,76,84,3.21,GQ,1738863548
240,pecos,31.4229,-103.4932,19.05,16,0,0.0,US,1738863549
241,choma,-16.8065,26.9531,19.65,85,100,2.5,ZM,1738863550
242,sequeira,40.5536,-7.2259,5.86,67,100,0.93,PT,1738863551
243,vernon,50.2581,-119.2691,-10.14,66,44,0.89,CA,1738863553
244,olyokminsk,60.3736,120.4264,-40.65,100,52,0.49,RU,1738863554
245,ubud,-8.5098,115.2654,26.62,88,97,1.65,ID,1738863435
246,kongsvinger,60.1905,11.9977,-8.58,97,72,1.0,NO,1738863557
247,vanino,49.0869,140.2543,-2.12,95,100,7.07,RU,1738863558
248,baruun-urt,46.6806,113.2792,-25.29,83,45,3.81,MN,1738863559
249,chonchi,-42.6128,-73.8092,18.4,43,16,1.71,CL,1738863560
250,selfoss,63.9331,-20.9971,1.69,64,100,12.34,IS,1738863561
251,mount pearl,47.5166,-52.7813,-4.92,72,75,9.77,CA,1738863562
252,nelson bay,-32.7167,152.15,22.27,95,8,1.79,AU,1738863563
253,port moresby,-9.4431,147.1797,23.68,100,75,3.09,PG,1738863463
254,portland,45.5234,-122.6762,3.23,95,100,2.24,US,1738862814
255,queenstown,-31.8976,26.8753,18.23,87,100,2.92,ZA,1738863451
256,altamira,-3.2033,-52.2064,30.05,74,75,2.06,BR,1738863568
257,vorgashor,67.5833,63.95,-9.97,92,100,8.47,RU,1738863569
258,emerald,-23.5333,148.1667,20.86,93,100,3.37,AU,1738863570
259,mambusao,11.4289,122.5961,23.31,98,100,1.13,PH,1738863571
260,lazaro cardenas,17.9583,-102.2,28.35,56,0,3.43,MX,1738863572
261,konosha,60.9736,40.257,-3.61,95,100,1.24,RU,1738863573
262,humaita,-7.5061,-63.0208,29.27,77,87,0.62,BR,1738863574
263,diffa,13.3154,12.6113,25.15,13,0,3.75,NE,1738863576
264,velingara,13.15,-14.1167,34.39,9,0,3.97,SN,1738863577
265,puerto madero,14.7208,-92.4215,32.11,55,40,0.0,MX,1738863578
266,khorugh,37.4897,71.553,-15.56,82,100,0.6,TJ,1738863301
267,porto novo,6.4965,2.6036,30.9,71,71,4.75,BJ,1738863456
268,inverell,-29.7833,151.1167,17.84,89,1,1.45,AU,1738863581
269,brisas de zicatela,15.8369,-97.0419,32.29,45,75,1.54,MX,1738863582
270,ilulissat,69.2167,-51.1,-22.99,59,20,3.09,GL,1738863583
271,ca mau,9.1769,105.15,22.47,82,81,1.7,VN,1738863586
272,salto del guaira,-24.0625,-54.3069,29.26,60,98,4.6,PY,1738863587
273,aral,40.5156,81.2636,-3.7,60,59,0.94,CN,1738863588
274,metlili chaamba,32.2667,3.6333,13.52,44,75,5.66,DZ,1738863589
275,avarua,-21.2078,-159.775,25.03,94,75,1.54,CK,1738863590
276,motygino,58.1831,94.7592,-25.29,100,100,0.64,RU,1738863591
277,tazacorte,28.629,-17.9293,19.53,74,40,3.13,ES,1738863592
278,northam,51.0333,-4.2167,5.45,76,0,1.79,GB,1738863594
279,huarmey,-10.0681,-78.1522,20.99,86,86,3.23,PE,1738863595
280,cherdyn',60.403,56.4787,-14.98,100,81,1.14,RU,1738863596
281,cill airne,52.05,-9.5167,7.03,76,0,6.69,IE,1738863597
282,baukau,51.5526,7.2042,4.71,88,98,2.24,DE,1738863598
283,gifford,27.6753,-80.4092,27.8,73,75,5.66,US,1738863599
284,godhra,22.75,73.6333,20.07,25,0,5.52,IN,1738863600
285,veinticinco de mayo,-35.4323,-60.1727,28.15,54,0,1.0,AR,1738863601
286,strathalbyn,-35.2667,138.9,16.03,95,23,2.73,AU,1738863602
287,fiambala,-27.6871,-67.6149,30.92,37,1,5.37,AR,1738863604
288,longboat key,27.4125,-82.659,26.74,52,0,4.63,US,1738863376
289,suva,-18.1416,178.4415,23.71,100,40,1.03,FJ,1738863606
290,egilsstadir,65.2653,-14.3948,11.95,54,75,21.09,IS,1738863607
291,sola,-13.8833,167.55,27.34,74,99,4.12,VU,1738863608
292,sinabang,2.4803,96.3801,25.85,86,78,1.49,ID,1738863609
293,georgetown,5.4112,100.3354,27.96,69,20,3.09,MY,1738863468
294,kalymnos,36.95,26.9833,7.74,57,40,8.75,GR,1738863611
295,carupano,10.6678,-63.2585,28.11,68,85,6.7,VE,1738863612
296,brownwood,31.7093,-98.9912,24.42,74,20,5.66,US,1738863163
297,tsaratanana,-16.7833,47.65,23.6,93,64,0.23,MG,1738863614
298,ngawi,-7.4038,111.4461,23.84,92,100,1.83,ID,1738863616
299,garachico,28.7781,-17.7646,18.05,63,40,3.09,ES,1738863617
300,diez,50.3667,8.0167,4.23,91,100,4.98,DE,1738863618
301,vila franca do campo,37.7167,-25.4333,18.27,99,96,3.23,PT,1738863619
302,hampton bays,40.869,-72.5176,4.02,95,100,2.24,US,1738863620
303,kapa'a,22.0752,-159.319,17.18,100,0,2.06,US,1738863419
304,dudinka,69.4058,86.1778,-18.37,97,96,4.8,RU,1738863622
305,kerbakhiar,40.1067,46.0383,-6.86,98,100,2.73,AZ,1738863623
306,konskie,51.1917,20.4061,0.64,95,100,1.83,PL,1738863624
307,villa la venta,18.1,-94.05,26.16,76,57,1.62,MX,1738863626
308,witu,-2.3889,40.4382,24.56,80,86,4.44,KE,1738863628
309,tibati,6.4667,12.6333,27.14,16,32,2.37,CM,1738863629
310,tangalle,6.024,80.7911,24.13,82,83,4.71,LK,1738863630
311,arkhangel'sk,64.5401,40.5433,-4.94,93,100,4.0,RU,1738863631
312,yoichi,43.2039,140.7703,-3.66,85,44,6.01,JP,1738863632
313,spencer,43.1414,-95.1444,-4.73,49,0,9.77,US,1738863633
314,bonthe,7.5264,-12.505,27.92,61,13,5.05,SL,1738863634
315,auki,-8.7676,160.7034,24.66,87,100,2.08,SB,1738863635
316,piti village,13.4626,144.6933,26.49,90,20,4.63,GU,1738863637
317,tabou,4.423,-7.3528,28.45,73,28,3.31,CI,1738863638
318,prince albert,53.2001,-105.7677,-15.03,72,75,6.69,CA,1738863452
319,okha,53.5739,142.9478,-4.34,79,100,10.35,RU,1738863640
320,grand falls-windsor,48.9332,-55.6649,-5.28,63,96,3.13,CA,1738863641
321,revda,56.801,59.9303,-15.27,100,77,1.23,RU,1738863642
322,veselyy,47.0934,40.7422,-1.22,71,49,6.35,RU,1738863643
323,jayapura,-2.5333,140.7,25.66,91,97,1.66,ID,1738863644
324,mamers,48.3333,0.25,3.28,81,27,5.07,FR,1738863645
325,palmer,42.1584,-72.3287,-1.58,75,100,0.45,US,1738863493
326,callao,-12.0667,-77.15,24.16,83,20,4.12,PE,1738863073
327,pariaman,-0.619,100.12,25.56,84,43,1.41,ID,1738863649
328,fitzgerald,31.7149,-83.2526,21.99,68,100,5.14,US,1738863650
329,mangalia,43.8,28.5833,1.57,63,100,7.59,RO,1738863651
330,kalevala,65.2,31.1667,-4.23,85,32,5.06,RU,1738863652
331,sisimiut,66.9395,-53.6735,-20.88,86,100,1.6,GL,1738863653
332,puerto deseado,-47.7503,-65.8938,20.83,20,18,13.98,AR,1738863654
333,champerico,14.3,-91.9167,29.44,61,1,4.53,GT,1738863656
334,yuzhno-kurilsk,44.0306,145.8556,-3.43,84,74,0.9,RU,1738863657
335,vadso,70.0744,29.7487,2.09,80,20,11.83,NO,1738863658
336,opuwo,-18.0607,13.84,21.64,74,78,4.24,NA,1738863659
337,mesyagutovo,55.5303,58.2528,-16.33,100,53,0.56,RU,1738863660
338,mejit,10.2753,170.8646,25.76,81,91,8.09,MH,1738863661
339,izhmorskiy,56.194,86.6414,-21.79,100,81,2.37,RU,1738863662
340,laminusa,5.5549,120.9136,26.81,81,99,3.28,PH,1738863663
341,praia da vitoria,38.7333,-27.0667,18.14,77,40,7.11,PT,1738863664
342,namibe,-15.1961,12.1522,23.83,84,83,2.36,AO,1738863666
343,inirida,3.8653,-67.9239,30.32,67,90,1.09,CO,1738863667
344,novyy buh,47.6931,32.5216,-0.52,66,100,5.8,UA,1738863668
345,gornyak,50.9942,81.4661,-23.95,100,64,0.84,RU,1738863669
346,saldanha,-33.0117,17.9442,19.15,81,0,12.77,ZA,1738863670
347,maumere,-8.6199,122.2111,25.77,82,100,0.68,ID,1738863671
348,zaozersk,69.4005,32.4476,0.25,81,100,16.2,RU,1738863672
349,le lavandou,43.137,6.366,11.4,63,0,1.54,FR,1738863673
350,kuloy,61.0305,42.4925,-2.74,93,100,1.22,RU,1738863674
351,acarau,-2.8856,-40.12,29.51,68,81,5.43,BR,1738863615
352,akureyri,65.6835,-18.0878,4.96,60,100,6.69,IS,1738863677
353,ad dilam,23.9915,47.1627,22.81,8,100,5.35,SA,1738863545
354,sant lluis,39.8526,4.2594,10.22,81,40,2.57,ES,1738863679
355,englewood,39.6478,-104.9878,7.9,55,0,0.45,US,1738863562
356,santana,-0.0583,-51.1817,27.1,89,100,4.63,BR,1738863681
357,ancud,-41.8697,-73.8203,13.77,60,68,4.25,CL,1738863671
358,fortuna,40.5982,-124.1573,5.75,94,40,4.12,US,1738863684
359,carnot-moon,40.5186,-80.2174,7.39,92,100,6.17,US,1738863685
360,hammerfest,70.6634,23.6821,5.25,81,75,14.92,NO,1738863686
361,richmond,37.5538,-77.4603,6.69,91,100,7.72,US,1738863508
362,susuman,62.7833,148.1667,-38.23,89,5,1.73,RU,1738863688
363,camana,-16.6228,-72.7111,25.19,71,72,3.1,PE,1738863689
364,sinop,41.7711,34.8709,-2.91,97,99,4.46,TR,1738863690
365,dour,50.3958,3.7779,4.78,75,99,6.06,BE,1738863691
366,baise city,23.8997,106.6133,11.39,85,100,0.56,CN,1738863692
367,gaiman,-43.2897,-65.4929,26.11,14,2,8.79,AR,1738863694
368,dem'yanovo,60.3511,47.0842,-17.83,100,68,0.83,RU,1738863695
369,turpan,42.9333,89.1667,-2.28,46,26,1.51,CN,1738863696
370,wabag,-5.4781,143.7021,13.67,99,99,0.4,PG,1738863697
371,kuching,1.55,110.3333,26.12,96,40,0.0,MY,1738863528
372,vorkuta,67.5,64.0,-9.73,92,100,8.08,RU,1738863699
373,nuuk,64.1835,-51.7216,-11.66,79,75,11.83,GL,1738863700
374,port lincoln,-34.7333,135.8667,18.19,81,16,7.24,AU,1738863627
375,lockwood,45.8191,-108.4149,-4.9,67,100,6.69,US,1738863702
376,quepos,9.4236,-84.1652,29.28,64,74,3.51,CR,1738863704
377,ishinomaki,38.4167,141.3,-1.32,76,59,6.13,JP,1738863705
378,leh,34.1667,77.5833,-24.58,68,3,2.12,IN,1738863706
379,midvagur,62.0511,-7.1939,9.46,76,100,9.26,FO,1738863707
380,gadzhiyevo,69.2551,33.3362,0.08,78,100,15.09,RU,1738863709
381,lucapa,-8.4192,20.7447,19.47,97,100,2.52,AO,1738863710
382,balykshi,47.0667,51.8667,-4.0,80,0,7.0,KZ,1738863711
383,north haledon,40.9551,-74.186,2.44,94,100,0.45,US,1738863712
384,shakhun'ya,57.6758,46.6114,-14.65,99,50,1.39,RU,1738863714
385,plastun,44.7561,136.2939,-14.57,62,57,4.75,RU,1738863715
386,sinfra,6.6167,-5.9167,33.52,20,5,0.69,CI,1738863717
387,tiquipaya,-17.3382,-66.2189,20.54,40,40,5.14,BO,1738863718
388,esil,51.9556,66.4042,-17.25,84,7,4.13,KZ,1738863719
389,berezovyy,51.6667,135.7,-10.93,93,100,5.75,RU,1738863720
390,borda da mata,-22.2742,-46.1653,25.52,73,68,0.98,BR,1738863721
391,boundiali,9.5217,-6.4869,32.21,13,78,1.53,CI,1738863722
392,hazard,37.2495,-83.1932,17.81,84,95,5.54,US,1738863723
393,dwarka,22.2394,68.9678,21.26,44,3,5.51,IN,1738863725
394,lumut,4.2323,100.6298,26.01,78,40,0.51,MY,1738863726
395,nema,57.5067,50.5011,-15.14,100,98,1.22,RU,1738863727
396,saint-pierre,-21.3393,55.4781,27.82,78,0,1.54,RE,1738863728
397,vilyuchinsk,52.9306,158.4028,-2.85,86,100,1.8,RU,1738863729
398,dul'durga,50.6761,113.5931,-28.04,90,39,2.33,RU,1738863730
399,mhamid,29.82,-5.72,15.79,27,3,2.24,MA,1738863731
400,chaihe,44.7667,129.7,-18.75,80,100,3.04,CN,1738863732
401,ust-kamenogorsk,49.9789,82.6103,-27.04,76,100,1.0,KZ,1738863733
402,alaghsas,17.0187,8.0168,27.94,13,70,6.17,NE,1738863671
403,mermoz boabab,14.7065,-17.4758,23.88,33,36,5.14,SN,1738863736
404,kone,-21.0595,164.8658,25.22,89,99,2.37,NC,1738863737
405,leava,-14.3,-178.1667,28.77,65,59,3.89,WF,1738863738
406,ingeniero guillermo n. juarez,-23.9,-61.85,43.35,16,1,2.81,AR,1738863739
407,saipan,15.1355,145.701,26.39,92,100,9.26,MP,1738863741
408,sincik,38.0368,38.6149,-5.48,81,91,5.88,TR,1738863742
409,natal,-5.795,-35.2094,30.12,66,40,7.2,BR,1738863006
410,nova vicosa,-17.8919,-39.3719,27.52,65,97,3.8,BR,1738863744
411,savda,21.15,75.8833,23.27,24,0,5.47,IN,1738863745
412,argo,37.6333,22.7333,6.44,69,12,1.55,GR,1738863747
413,kalat,29.0225,66.5916,6.18,22,34,2.35,PK,1738863749
414,calvinia,-31.4707,19.776,26.27,20,0,5.03,ZA,1738863751
415,qamdo,31.1667,97.2333,-2.04,56,6,2.74,CN,1738863752
416,nikel,69.4128,30.222,2.09,81,100,14.29,RU,1738863754
417,saudarkrokur,65.7461,-19.6394,0.35,92,100,12.92,IS,1738863755
418,porto velho,-8.7619,-63.9039,32.03,58,75,1.54,BR,1738863756
419,nagato,34.3833,131.2,2.81,49,100,5.05,JP,1738863757
420,tinogasta,-28.0632,-67.5649,33.15,30,5,4.1,AR,1738863526
421,luis correia,-2.8792,-41.6669,32.0,66,40,6.17,BR,1738863759
422,arraial do cabo,-22.9661,-42.0278,32.98,51,40,8.23,BR,1738863737
423,vilyuysk,63.7553,121.6247,-40.25,100,55,2.02,RU,1738863469
424,labrador city,52.9463,-66.9114,-14.05,66,75,5.66,CA,1738863612
425,aldinga beach,-35.2793,138.4604,18.69,86,29,5.12,AU,1738863764
426,chicoana,-25.1009,-65.5331,32.03,30,8,3.95,AR,1738863765
427,aligudarz,33.4006,49.6949,1.09,94,54,3.14,IR,1738863556
428,yulinshi,38.2906,109.7494,-16.86,19,0,8.36,CN,1738863767
429,takoradi,4.8845,-1.7554,28.4,69,69,3.69,GH,1738863618
430,thal,35.4791,72.2439,-9.35,67,15,3.69,PK,1738863769
431,mahina,-17.5065,-149.489,27.64,74,0,1.03,PF,1738863770
432,mabai,23.0128,104.4508,8.4,98,100,1.34,CN,1738863772
433,manado,1.487,124.8455,24.43,94,40,4.12,ID,1738863773
434,bathsheba,13.2167,-59.5167,30.34,58,20,10.29,BB,1738863775
435,celestun,20.8667,-90.4,29.27,54,3,1.12,MX,1738863776
436,horta,38.5333,-28.6333,18.8,93,40,5.81,PT,1738863777
437,necochea,-38.5473,-58.7368,27.6,45,0,8.47,AR,1738863778
438,todos santos,23.45,-110.2167,21.36,54,0,2.73,MX,1738863780
439,whistler,50.1164,-122.9695,-14.43,78,40,1.54,CA,1738863756
440,tralee,52.2704,-9.7026,7.14,76,0,5.14,IE,1738863784
441,umba,66.6871,34.3429,-3.74,84,51,5.96,RU,1738863785
442,ketchikan,55.3422,-131.6461,-0.37,73,100,1.54,US,1738863786
443,nassau,40.7507,-73.5829,3.82,95,100,2.06,US,1738863787
444,betioky,-23.7167,44.3833,24.58,88,80,1.35,MG,1738863789
445,thoen,17.6129,99.2161,22.05,60,68,0.59,TH,1738863790
446,laguna,38.421,-121.4238,7.1,93,75,3.6,US,1738863791
447,sile,41.1754,29.6133,4.37,66,100,8.87,TR,1738863792
448,tsiombe,-25.3,45.4833,24.93,95,87,0.93,MG,1738863793
449,alotau,-10.3069,150.4462,25.69,89,100,2.86,PG,1738863794
450,la romana,18.4273,-68.9728,27.2,74,75,6.17,DO,1738863795
451,ulsteinvik,62.3432,5.8487,9.07,76,95,6.32,NO,1738863796
452,nalut,30.3333,10.85,14.82,40,21,5.51,LY,1738863797
453,haiku-pauwela,20.9219,-156.3051,19.03,79,33,0.89,US,1738863798
454,bayganin,48.6947,55.8742,-9.38,82,15,7.72,KZ,1738863800
455,machakos,-1.5167,37.2667,19.85,61,100,3.06,KE,1738863801
456,mawu,34.4307,104.9176,-11.77,66,99,0.2,CN,1738863802
457,amga,60.8953,131.9608,-41.12,100,90,0.63,RU,1738863803
458,general mosconi,-23.1851,-62.303,43.93,15,4,4.83,AR,1738863804
459,dizangue,3.7667,9.9833,28.31,73,98,3.12,CM,1738863805
460,ha tinh,18.3333,105.9,18.44,94,91,0.83,VN,1738863806
461,dryden,49.7833,-92.7503,-13.84,72,100,7.72,CA,1738863808
462,sarkand,45.41,79.9186,-6.35,60,8,3.91,KZ,1738863809
463,gulf shores,30.246,-87.7008,24.68,85,40,5.14,US,1738863663
464,pirai,-22.6292,-43.8981,32.58,38,83,3.45,BR,1738863811
465,braganca,-1.0536,-46.7656,28.81,77,61,1.87,BR,1738863812
466,codrington,-38.2667,141.9667,16.99,97,61,4.04,AU,1738863813
467,alegrete,-29.7831,-55.7919,41.35,23,11,5.44,BR,1738863814
468,omdurman,15.6445,32.4777,27.14,13,0,6.23,SD,1738863816
469,banavar,13.4136,76.1683,20.65,38,10,2.17,IN,1738863817
470,moranbah,-22.0016,148.0466,20.31,97,100,6.9,AU,1738863818
471,prince rupert,54.3161,-130.3201,-0.17,51,100,6.17,CA,1738863803
472,mongo,12.1844,18.693,30.22,12,1,3.89,TD,1738863820
473,turkmenbasy,40.0222,52.9552,7.43,49,0,8.75,TM,1738863821
474,afaahiti,-17.75,-149.2833,25.78,80,34,5.95,PF,1738863822
475,road town,18.4167,-64.6167,28.02,61,40,5.14,VG,1738863823
476,santa cruz,-17.8,-63.1667,32.03,62,75,6.17,BO,1738863619
477,odense,55.3959,10.3883,1.73,88,0,3.72,DK,1738863825
478,al bawiti,28.3492,28.8659,11.63,47,41,6.17,EG,1738863827
479,volchikha,52.0333,80.3833,-17.35,95,31,2.96,RU,1738863828
480,i-n-salah,27.1935,2.4607,17.02,34,0,6.49,DZ,1738863829
481,kuressaare,58.2481,22.5039,1.64,97,75,2.57,EE,1738863830
482,sutherlin,43.3901,-123.3126,2.93,23,100,0.0,US,1738863831
483,castelli,-25.9468,-60.6195,43.35,18,0,2.74,AR,1738863832
484,rumbek,6.802,29.6912,31.94,21,99,2.21,SS,1738863833
485,new plymouth,-39.0667,174.0833,14.62,100,73,2.36,NZ,1738863834
486,gunjur,13.2019,-16.7339,34.04,10,0,3.6,GM,1738863835
487,margate,51.3813,1.3862,6.6,77,19,2.24,GB,1738863837
488,tatsunocho-tominaga,34.8667,134.55,-0.29,67,83,5.2,JP,1738863838
489,samana,19.2056,-69.3369,24.12,78,75,3.09,DO,1738863839
490,general villegas,-35.0328,-63.0125,33.08,30,0,3.58,AR,1738863840
491,terrace,54.5163,-128.6035,-11.05,67,75,8.23,CA,1738863842
492,galesong,-5.3166,119.3661,24.86,88,100,1.64,ID,1738863843
493,mbeya,-8.9,33.45,16.26,98,100,1.07,TZ,1738863734
494,pisco,-13.7,-76.2167,26.12,88,0,4.63,PE,1738863845
495,chachapoyas,-6.2317,-77.869,17.02,82,83,1.25,PE,1738863772
496,penrith,54.6658,-2.7576,1.81,81,1,2.13,GB,1738863849
497,yangshuo,24.7808,110.4897,7.7,91,100,1.72,CN,1738863850
498,battambang,13.1027,103.1982,23.81,53,41,2.81,KH,1738863851
499,axim,4.8699,-2.2405,27.61,79,54,4.7,GH,1738863852
500,south hedland,-20.4089,118.5983,30.96,70,57,8.23,AU,1738863853
501,sol'tsy,58.1239,30.3238,-6.85,97,54,1.12,RU,1738863854
502,fenyi,27.8112,114.6681,6.01,92,99,1.3,CN,1738863857
503,arraias,-12.9288,-46.9437,28.71,48,100,1.0,BR,1738863858
504,saint-philippe,-21.3585,55.7679,27.92,82,41,3.14,RE,1738863859
505,san juan de miraflores,-12.1629,-76.9635,23.29,74,98,3.06,PE,1738863860
506,papao,-17.75,-149.55,26.82,76,19,7.01,PF,1738863861
507,scarborough,54.2797,-0.4044,5.37,36,0,0.45,GB,1738863719
508,asau,46.4333,26.4,-4.06,85,51,1.69,RO,1738863863
509,cibitoke,-2.8833,29.25,19.08,77,100,1.54,BI,1738863864
510,fort st. john,56.2499,-120.8529,-15.06,85,75,2.57,CA,1738863766
511,san pedro pochutla,15.7333,-96.4667,32.62,40,19,3.33,MX,1738863867
512,norton,-17.8833,30.7,24.04,63,52,2.02,ZW,1738863869
513,tucuma,-0.1833,-50.05,28.1,79,56,2.56,BR,1738863870
514,hopewell,37.3043,-77.2872,5.29,90,100,5.16,US,1738863778
515,machico,32.7,-16.7667,19.28,63,20,5.14,PT,1738863872
516,bangassou,4.7413,22.8184,28.86,22,77,1.2,CF,1738863873
517,brokopondo,4.75,-55.1667,27.1,80,52,3.12,SR,1738863874
518,las veredas,23.1388,-109.7075,24.42,32,0,2.71,MX,1738863875
519,tukrah,32.5341,20.5791,12.59,70,90,7.51,LY,1738863876
520,quelimane,-17.8786,36.8883,24.06,96,81,2.6,MZ,1738863877
521,donghai,22.9459,115.642,15.35,58,97,2.66,CN,1738863879
522,moab,38.5733,-109.5498,17.56,26,0,0.45,US,1738863659
523,kas,36.2018,29.6377,7.15,40,0,3.26,TR,1738863881
524,kalmunai,7.4167,81.8167,24.98,82,54,2.71,LK,1738863882
525,andovoranto,-18.95,49.1,26.49,90,48,2.92,MG,1738863883
526,mariental,-24.6333,17.9667,30.87,30,68,5.81,NA,1738863884
527,essaouira,31.5125,-9.77,19.72,42,0,4.63,MA,1738863885
528,shetpe,44.1667,52.1167,0.06,81,58,6.46,KZ,1738863886
529,seydi,39.4816,62.9137,10.77,33,100,4.9,TM,1738863887
530,borogontsy,62.6683,131.1683,-39.38,100,45,1.86,RU,1738863888
531,bamboo flat,11.7,92.7167,23.05,88,88,1.03,IN,1738863891
532,knyaze-volkonskoye,48.4642,135.4567,-9.81,94,100,5.55,RU,1738863892
533,bowen,-20.0167,148.2333,24.82,94,100,1.0,AU,1738863893
534,mushie,-3.0167,16.9,24.55,80,99,1.11,CD,1738863894
535,kirakira,-10.4544,161.9205,26.63,80,100,0.75,SB,1738863895
536,jinchang,38.4953,102.1739,-9.86,42,0,1.86,CN,1738863896
537,griffith,41.5284,-87.4237,0.31,84,100,8.75,US,1738863897
538,kota tinggi,1.7381,103.8999,23.13,90,84,1.83,MY,1738863898
539,chingirlau,51.095,54.0814,-9.02,86,16,6.57,KZ,1738863900
540,chamical,-30.36,-66.314,35.99,31,0,7.91,AR,1738863901
541,khomeyn,33.6423,50.0789,5.13,56,39,5.32,IR,1738863902
542,chillicothe,39.3331,-82.9824,7.36,88,100,5.14,US,1738863611
543,duong dong,10.2167,103.9667,25.0,83,20,0.0,VN,1738863904
544,gaspe,48.8334,-64.4819,-8.88,57,75,4.12,CA,1738863905
545,gaalkacyo,6.7697,47.4308,24.06,68,35,7.68,SO,1738863906
546,toungo,8.1167,12.05,29.35,14,18,1.65,NG,1738863907
547,humberto de campos,-2.5983,-43.4611,27.41,88,100,1.95,BR,1738863908
548,quibala,-10.7337,14.98,18.67,83,27,1.53,AO,1738863812
549,mossel bay,-34.1831,22.146,21.2,76,17,5.91,ZA,1738863911
550,masterton,-40.9597,175.6575,11.47,90,56,1.07,NZ,1738863912
551,hillsborough,37.5741,-122.3794,9.34,94,100,6.69,US,1738863868
552,tshabong,-26.05,22.45,31.36,27,46,5.46,BW,1738863915
553,chipinge,-20.1883,32.6236,18.72,69,3,1.67,ZW,1738863916
554,malvan,16.0667,73.4667,24.25,69,0,2.5,IN,1738863917
555,edson,53.5835,-116.4356,-12.92,78,75,2.57,CA,1738863918
556,bontang,0.1333,117.5,26.48,84,98,1.5,ID,1738863919
557,sao felix do xingu,-6.6447,-51.995,27.34,83,96,1.5,BR,1738863921
558,puerto ayacucho,5.6639,-67.6236,35.49,37,83,1.78,VE,1738863922
559,tvoroyri,61.5556,-6.8111,8.36,80,100,19.68,FO,1738863923
560,menaka,15.9182,2.4022,29.53,9,91,2.33,ML,1738863924
561,abepura,-2.6333,140.5833,25.45,94,20,1.03,ID,1738863925
562,magadan,59.5667,150.8,-22.05,70,2,4.65,RU,1738863926
563,zaxo,37.1482,42.7001,6.05,88,100,1.54,IQ,1738863927
564,mormugao,15.4,73.8,26.59,83,3,2.06,IN,1738863928
565,bom jesus,-9.0744,-44.3586,33.46,39,66,3.12,BR,1738863816
566,sao jose do belmonte,-7.8614,-38.7597,31.37,43,93,6.13,BR,1738863931
567,launceston,-41.45,147.1667,16.8,88,75,3.6,AU,1738863932
568,kavieng,-2.5744,150.7967,27.66,77,85,4.17,PG,1738863933
569,taro,-8.3862,115.28,20.67,93,100,0.73,ID,1738863934
570,korla,41.7597,86.1469,-5.47,67,100,1.4,CN,1738863935
571,weno,7.4515,151.8468,25.97,94,100,3.6,FM,1738863936
572,dampit,-8.2116,112.7493,21.59,94,100,1.33,ID,1738863937
573,kuanda,56.3161,116.0806,-36.29,96,68,0.28,RU,1738863938
574,san angelo,31.4638,-100.437,24.21,69,0,6.17,US,1738863720
575,kananga,-5.8958,22.4178,23.09,81,100,0.86,CD,1738863941
576,guerrero negro,27.9769,-114.0611,17.98,73,20,7.32,MX,1738863942
577,sumbawa besar,-8.5,117.4333,24.19,97,98,1.74,ID,1738863943
578,wau,7.7029,27.9953,29.69,18,100,1.78,SS,1738863944
579,kapuskasing,49.4169,-82.4331,-6.95,86,100,6.17,CA,1738863662
580,langepas,61.2544,75.2124,-10.79,98,98,2.8,RU,1738863947
